{
   "type": "FeatureCollection",
   "features": [
  {
    "type": "Feature",
    "geometry": {
       "type": "Point",
       "coordinates":  [ 139.5191,35.7087 ]
    },
    "properties": {
    "A27_005":13210,
    "A27_006":"小金井市立",
    "A27_007":"緑中学校",
    "A27_008":"小金井市緑町2丁目11−47",
    "x":139.5191,
    "y":35.7087,
    "label":"緑中学校"
    }
  },
  {
    "type": "Feature",
    "geometry": {
       "type": "Point",
       "coordinates":  [ 139.5039,35.7104 ]
    },
    "properties": {
    "A27_005":13210,
    "A27_006":"小金井市立",
    "A27_007":"小金井第一中学校",
    "A27_008":"小金井市桜町2丁目3−15",
    "x":139.5039,
    "y":35.7104,
    "label":"小金井第一中学校"
    }
  },
  {
    "type": "Feature",
    "geometry": {
       "type": "Point",
       "coordinates":  [ 139.5250,35.6904 ]
    },
    "properties": {
    "A27_005":13210,
    "A27_006":"小金井市立",
    "A27_007":"東中学校",
    "A27_008":"小金井市東町1丁目5−33",
    "x":139.525,
    "y":35.6904,
    "label":"東中学校"
    }
  },
  {
    "type": "Feature",
    "geometry": {
       "type": "Point",
       "coordinates":  [ 139.5107,35.6953 ]
    },
    "properties": {
    "A27_005":13210,
    "A27_006":"小金井市立",
    "A27_007":"小金井第二中学校",
    "A27_008":"小金井市中町1丁目8−25",
    "x":139.5107,
    "y":35.6953,
    "label":"小金井第二中学校"
    }
  },
  {
    "type": "Feature",
    "geometry": {
       "type": "Point",
       "coordinates":  [ 139.4997,35.6905 ]
    },
    "properties": {
    "A27_005":13210,
    "A27_006":"小金井市立",
    "A27_007":"南中学校",
    "A27_008":"小金井市貫井南町",
    "x":139.499,
    "y":35.6905,
    "label":"南中学校"
    }
  }
]
}
